{"ActorName":"BP_Mercedes_eCitaro_18m_3Door_C_2147195564","IsPlayerControlled":"true","VehicleModel":"eCitybus","InputIdentifier":"eCitaro","Speed":0.0,"RPM":0.0,"IdleRPM":0.0,"MaxRPM":11000.0,"Mass":20500.0,"Steering":-0.00928,"Throttle":0.0,"Brake":0.4,"FixingBrake":"false","Load":0.0,"EngineStarted":"true","GearboxType":"None","LowFuelWarning":"false","Location":{"X":80409.669064,"Y":699831.974254,"Z":2576.255446},"Rotation":{"Roll":2.53624,"Pitch":2.09901,"Yaw":-164.711411},"IndicatorState":0,"IndicatorValue":0,"WarningLights":"false","IsOffroad":"false","Gearbox":{},"Wheels":[{"CurrentSuspension":21.682817,"PreviousSuspension":21.682817,"Location":{"X":222.768097,"Y":-116.450996,"Z":38.682817},"Rotation":{"Roll":0.0,"Pitch":-160.524231,"Yaw":-0.417612},"SuspensionForce":1980078.795776,"OnGround":"true","HasContraction":"true"},{"CurrentSuspension":23.707973,"PreviousSuspension":23.707973,"Location":{"X":222.768097,"Y":116.450996,"Z":40.707973},"Rotation":{"Roll":0.0,"Pitch":-5.418245,"Yaw":-0.417612},"SuspensionForce":3012908.204224,"OnGround":"true","HasContraction":"true"},{"CurrentSuspension":21.641447,"PreviousSuspension":21.641447,"Location":{"X":-358.161896,"Y":-116.450996,"Z":38.641447},"Rotation":{"Roll":0.0,"Pitch":-18.048159,"Yaw":0.0},"SuspensionForce":7785182.647705,"OnGround":"true","HasContraction":"true"},{"CurrentSuspension":23.834284,"PreviousSuspension":23.834284,"Location":{"X":-358.161896,"Y":116.450996,"Z":40.834284},"Rotation":{"Roll":0.0,"Pitch":-7.013924,"Yaw":0.0},"SuspensionForce":9495595.352295,"OnGround":"true","HasContraction":"true"},{"CurrentSuspension":29.087339,"PreviousSuspension":29.087339,"Location":{"X":-329.737,"Y":-116.450996,"Z":17.087339},"Rotation":{"Roll":0.0,"Pitch":-195.583237,"Yaw":0.0},"SuspensionForce":2862073.233398,"OnGround":"true","HasContraction":"true"},{"CurrentSuspension":29.670599,"PreviousSuspension":29.670599,"Location":{"X":-329.737,"Y":116.450996,"Z":17.670599},"Rotation":{"Roll":0.0,"Pitch":-144.063583,"Yaw":0.0},"SuspensionForce":3013720.766602,"OnGround":"true","HasContraction":"true"}],"IsRadioPlaying":"false","ActiveRadioChannel":"","RadioVolume":0.0,"PassengerDoorsOpen":"false","LuggageDoorsOpen":"false","NumSeats":41,"NumOccupiedSeats":0,"IgnitionEnabled":"true","EngineTemperature":0.483752,"WiperLevel":0,"DestinationDisplayActive":"true","CruiseControlActive":"false","AllowedSpeed":0.0,"IsAtStop":"false","DirtIntensity":0.0,"CurrentFuel":242.817062,"MaxFuel":243.0,"DisplayFuel":0.999247,"Buttons":[{"Name":"DriverWindow 1","Tooltip":"Fahrerfenster Ã¶ffnen","State":"Primary","Actions":["DriverWindowOpen","DriverWindowClose","None"],"States":["Primary","Secondary"]},{"Name":"Sun Blind Left","Tooltip":"","State":"Top","Value":"1.0","Actions":["WindowShadeSideDown","WindowShadeSideUp"],"States":[]},{"Name":"Sun Blind Small Left","Tooltip":"","State":"None","Value":"0.0","Actions":["None"],"States":[]},{"Name":"WindowShade 1","Tooltip":"Sonnenblende runterfahren","State":"Primary","Actions":["WindowShadeDown","WindowShadeUp","None"],"States":["Primary","Secondary"]},{"Name":"Wiper","Tooltip":"","State":"Off","Actions":["WiperDown","WiperUp"],"States":["Fast","On","Interval","Off"]},{"Name":"WindowHeating 1","Tooltip":"","State":"Primary","Actions":["WindowHeating","None"],"States":["Primary","Secondary"]},{"Name":"Fans 1","Tooltip":"Automatische Ventilation","State":"Primary","Actions":["Fans","None"],"States":["Primary","Secondary","Tertiary"]},{"Name":"EmergencyValve 1","Tooltip":"NothahnrÃ¼ckstellung","State":"false","Actions":["None"],"States":["On","Off"]},{"Name":"Bus Stop Brake Emergency Release","Tooltip":"","State":"false","Actions":["None"],"States":["On","Off"]},{"Name":"ParkingBrake","Tooltip":"Feststellbremse","State":"Secondary","Actions":["FixingBrake"],"States":["Primary","Secondary"]},{"Name":"Gear Selector","Tooltip":"","State":"Neutral","Actions":["SetGearN","SetGearR","SetGearD"],"States":["Drive","Neutral","Reverse"]},{"Name":"Fake Ignition","Tooltip":"","State":"Start","Actions":["MotorStartStop"],"States":["Start","On","Off"]},{"Name":"Light Switch","State":"Off","Value":"0.0","Actions":["Lightswitch","LightSwitchDown","LightSwitchUp"],"States":["Off","Parking Lights","Headlights","High Beam","Front Fog Light","Rear Fog Light"]},{"Name":"Indicator","Tooltip":"","State":"Primary","Actions":["IndicatorDown","IndicatorUp","None"],"States":["Primary","Secondary","Tertiary"]},{"Name":"WarningLights","Tooltip":"Warnblinker umschalten","State":"false","Actions":["ToggleWarningLights"],"States":["On","Off"]},{"Name":"DriverLight","Tooltip":"Fahrer Licht ein/aus","State":"false","Actions":["ToggleDriversLight"],"States":["On","Off"]},{"Name":"Retarder","Tooltip":"Retarder aus","State":"Primary","Actions":["RetarderOn","RetarderOff","RetarderMaxOff"],"States":["Primary","Secondary"]},{"Name":"Retarder Lever","State":"Retarder1","Value":"0.0","Actions":["RetarderLevel1","RetarderLevel2","RetarderLevel3","RetarderLevel4","RetarderLevel5","RetarderDown","RetarderUp"],"States":["Retarder1","Retarder2","Retarder3","Retarder4","Retarder5"]},{"Name":"SosLight","Tooltip":"SOS Licht","State":"false","Actions":["None"],"States":["On","Off"]},{"Name":"Announcement","Tooltip":"Ansage","State":"false","Actions":["Announcement"],"States":["On","Off"]},{"Name":"Announcement Volume","Tooltip":"LautstÃ¤rke verringern","State":"Primary","Actions":["None"],"States":["Primary","Secondary"]},{"Name":"Air Filter System","Tooltip":"","State":"Primary","Actions":["AirFilter","None"],"States":["Primary","Secondary","Tertiary"]},{"Name":"SteeringWheelAdjust","Tooltip":"Lenkrad Justierung umschalten","State":"false","Actions":["SteeringWheelAdjust"],"States":["On","Off"]},{"Name":"LaneAssist","Tooltip":"Spur Assistent ein/aus","State":"false","Actions":["LaneAssist"],"States":["On","Off"]},{"Name":"TractionControl","Tooltip":"Antischlupfregelung umschalten","State":"false","Actions":["ToggleASRThreshold"],"States":["On","Off"]},{"Name":"Lifting","Tooltip":"Lift runter","State":"Primary","Actions":["LiftDown","LiftUp","None"],"States":["Primary","Secondary"]},{"Name":"Kneeling","Tooltip":"Kneeling Runter","State":"Primary","Actions":["KneelDown","KneelUp","None"],"States":["Primary","Secondary"]},{"Name":"Camera 1","Tooltip":"Ãberwachungskamera umschalten","State":"true","Actions":["Camera"],"States":["On","Off"]},{"Name":"Camera 2","Tooltip":"Monitor ein-/ausschalten","State":"false","Actions":["ToggleCameraDisplay"],"States":["On","Off"]},{"Name":"DisplayNext","Tooltip":"MenÃ¼ wechseln","State":"false","Actions":["MenuHomescreen"],"States":["On","Off"]},{"Name":"AutomaticKneeling","Tooltip":"Automatisches Kneeling umschalten","State":"true","Actions":["Pedestrians"],"States":["On","Off"]},{"Name":"InteriorLightControl 2","Tooltip":"Innenbeleuchtung vollstÃ¤ndig einschalten","State":"Primary","Actions":["InteriorLightDim","InteriorLightBright","None"],"States":["Primary","Secondary","Tertiary"]},{"Name":"InteriorLightControl 1","Tooltip":"Innenbeleuchtung ein/aus","State":"false","Actions":["TogglePassengersLight"],"States":["On","Off"]},{"Name":"AutomaticDoorClosing","Tooltip":"Automatisches TÃ¼r schlieÃen ein/aus","State":"false","Actions":["ToggleAutomaticRearDoorClosing"],"States":["On","Off"]},{"Name":"DoorLock 1","Tooltip":"Rechte VordertÃ¼re sperren","State":"Primary","Actions":["DoorWingLockOff","DoorWingLockLeft","DoorWingLockRight","None"],"States":["Primary","Secondary","Tertiary"]},{"Name":"BusStopBrake","Tooltip":"Haltestellenbremse","State":"false","Actions":["StopBrakeOnOff"],"States":["On","Off"]},{"Name":"DoorClearance","Tooltip":"Hintere TÃ¼rfreigabe umschalten","State":"false","Actions":["ToggleDoorClearance"],"States":["On","Off"]},{"Name":"Door 1","Tooltip":"Vordere TÃ¼r Ã¶ffnen/schlieÃen","State":"true","Actions":["DoorFrontOpenClose"],"States":["On","Off"]},{"Name":"Door 2","Tooltip":"Zweite TÃ¼r Ãffnen/SchlieÃen","State":"false","Actions":["DoorMiddleOpenClose"],"States":["On","Off"]},{"Name":"Door 3","Tooltip":"Dritte TÃ¼r Ã¶ffnen/schlieÃen","State":"false","Actions":["DoorRearOpenClose"],"States":["On","Off"]},{"Name":"Door 4","Tooltip":"Vierte TÃ¼r Ã¶ffnen/schlieÃen","State":"false","Actions":["DoorFourthOpenClose"],"States":["On","Off"]},{"Name":"WheelchairRamp","Tooltip":"Rollstuhlrampe einfahren","State":"Primary","Actions":["ElectricRampIn","ElectricRampOut","None"],"States":["Primary","Secondary"]},{"Name":"Air Condition","Tooltip":"Klimaanlage einschalten","State":"Primary","Actions":["ToggleAirCondition"],"States":["Primary","Secondary"]},{"Name":"AC 1 Mode","Tooltip":"Zum KÃ¼hlmodus wechseln","State":"Primary","Actions":["ACMode"],"States":["Primary","Secondary"]},{"Name":"AC Rear","Tooltip":"Hintere Klimaanlage einschalten","State":"Primary","Actions":["ACRear"],"States":["Primary","Secondary"]},{"Name":"AC 1 Circulation","Tooltip":"Luftzirkulation aktivieren","State":"Primary","Actions":["ACCirculation"],"States":["Primary","Secondary"]},{"Name":"AC Circulation Front","Tooltip":"Vordere Luftzirkulation aktivieren","State":"Primary","Actions":["ACCirculationFront"],"States":["Primary","Secondary"]},{"Name":"AC 1 AirFlow","State":"AC_Mode_3","Value":"0.673077","Actions":["AC 1 AirFlowFakeLeft","AC 1 AirFlowFakeRight"],"States":["AC_Mode_1","AC_Mode_2","AC_Mode_3","AC_Mode_4"]},{"Name":"Air Condition Temperature","State":"200","Value":"0.2","Actions":["SetTemp180","SetTemp185","SetTemp190","SetTemp195","SetTemp200","SetTemp205","SetTemp210","SetTemp215","SetTemp220","SetTemp225","SetTemp230","SetTemp235","SetTemp240","SetTemp245","SetTemp250","SetTemp255","SetTemp260","SetTemp265","SetTemp270","SetTemp275","SetTemp280","AirconditionMinus","AirconditionPlus"],"States":["180","185","190","195","200","205","210","215","220","225","230","235","240","245","250","255","260","265","270","275","280"]},{"Name":"AC 1 FanSpeed","State":"Default","Value":"76.233184","Actions":["None"],"States":["Default"]},{"Name":"vent","State":"Default","Value":"0.0","Actions":["None"],"States":["Default"]},{"Name":"Display Monitor","Tooltip":"","State":"false","Actions":["None"],"States":["On","Off"]},{"Name":"CameraPrevious","Tooltip":"Zur vorherigen Kamera wechseln","State":"false","Actions":["SwitchPreviousCamera"],"States":["On","Off"]},{"Name":"CameraNext","Tooltip":"Zur nÃ¤chsten Kamera wechseln","State":"false","Actions":["SwitchNextCamera"],"States":["On","Off"]},{"Name":"Display Mirror Image","Tooltip":"","State":"false","Actions":["None"],"States":["On","Off"]},{"Name":"Vent Right","Tooltip":"","State":"Primary","Actions":["None"],"States":["Primary","Secondary"]},{"Name":"Vent Left","Tooltip":"","State":"Primary","Actions":["None"],"States":["Primary","Secondary"]},{"Name":"DriverDoor","Tooltip":"","State":"false","Actions":["None"],"States":["On","Off"]},{"Name":"DriverDoorHandle","Tooltip":"","State":"None","Value":"0.0","Actions":["None"],"States":[]},{"Name":"BoardComputer","Tooltip":"Atron auswÃ¤hlen","State":"false","Actions":["Select Boardcomputer"],"States":["On","Off"]},{"Name":"15 Cent","Tooltip":"0.15 â¬","State":"false","Actions":["Coins15"],"States":["On","Off"]},{"Name":"20 Cent","Tooltip":"0.20 â¬","State":"false","Actions":["Coins20"],"States":["On","Off"]},{"Name":"30 Cent","Tooltip":"0.30 â¬","State":"false","Actions":["Coins30"],"States":["On","Off"]},{"Name":"50 Cent","Tooltip":"0.50 â¬","State":"false","Actions":["Coins50"],"States":["On","Off"]},{"Name":"60 Cent","Tooltip":"0.60 â¬","State":"false","Actions":["Coins60"],"States":["On","Off"]},{"Name":"1 Euro","Tooltip":"1 â¬","State":"false","Actions":["Coins100"],"States":["On","Off"]},{"Name":"2 Euro","Tooltip":"2 â¬","State":"false","Actions":["Coins200"],"States":["On","Off"]},{"Name":"4 Euro","Tooltip":"4 â¬","State":"false","Actions":["Coins400"],"States":["On","Off"]},{"Name":"6 Euro","Tooltip":"6 â¬","State":"false","Actions":["Coins600"],"States":["On","Off"]},{"Name":"8 Euro","Tooltip":"8 â¬","State":"false","Actions":["Coins800"],"States":["On","Off"]},{"Name":"5 Cent","Tooltip":"0,05 â¬","State":"false","Actions":["Coins5"],"States":["On","Off"]},{"Name":"10 Cent","Tooltip":"0.1 â¬","State":"false","Actions":["Coins10"],"States":["On","Off"]},{"Name":"Cash Money","Tooltip":"","State":"false","Actions":["Take Cash Money"],"States":["On","Off"]}],"Doors":[{"Name":"Door Third","Open":"false","Progress":"0.0","StopRequest":"false"},{"Name":"Door Second","Open":"false","Progress":"0.0","StopRequest":"false"},{"Name":"Door Front","Open":"false","Progress":"0.0","StopRequest":"false"}],"UMG":{"Driver Display":"/vehicles/BP_Mercedes_eCitaro_18m_3Door_C_2147195564/driverdisplay","Atron":"/vehicles/BP_Mercedes_eCitaro_18m_3Door_C_2147195564/boardcomputer","Navigation":"/vehicles/BP_Mercedes_eCitaro_18m_3Door_C_2147195564/navigation"},"AllLamps":{"Default Emissive Materials":0.0,"Default Emissive":0.0,"IndicatorLeft":0.0,"IndicatorRight":0.0,"LightDaytime":1.0,"LightMain":0.0,"LightParking":1.0,"LightHeadlight":0.0,"LightTraveling":0.0,"LightBrake":1.0,"LightReversal":0.0,"LightFog":0.0,"LightFog_LED":0.0,"LightRearFog":0.0,"LightRearFog_LED":0.0,"Interior Lights":0.0,"InteriorLightMain LED":0.0,"InteriorLightDimmState LED":0.0,"InteriorLightBrightState LED":0.0,"Interior Lights Door1":0.0,"Interior Lights Door2":0.0,"Interior Lights Door3":0.0,"Interior Lights Door4":0.0,"ButtonLight Door 1":0.0,"ButtonLight Door 2":0.0,"ButtonLight Door 3":0.0,"ButtonLight Door 4":0.0,"Door 2 WarningLight":0.0,"Door 3 WarningLight":0.0,"Door 4 WarningLight":0.0,"Driver Light":0.0,"LED Strip Ramp":0.0,"USB Lights":1.0,"LED Misc":0.0,"ButtonLight LaneAssist":0.0,"ButtonLight WindowHeating 1 State1":0.0,"ButtonLight WindowHeating 1 State2":0.0,"ButtonLight  Fans 1 State1":0.0,"ButtonLight  Fans 1 State2":0.0,"ButtonLight SosLight":0.0,"ButtonLight WarningLights":0.0,"ButtonLight Retarder":0.0,"ButtonLight InteriorLightControl 2 State1":0.0,"ButtonLight InteriorLightControl 2 State2":0.0,"ButtonLight DriverLight":0.0,"ButtonLight InteriorLightControl 1":0.0,"ButtonLight Announcement":0.0,"LED Wifi Clearance":0.0,"ButtonLight Camera 1":0.0,"ButtonLight SteeringWheelAdjust":0.0,"ButtonLight BusStopBrake":1.0,"ButtonLight TractionControl":0.0,"ButtonLight DriverDoor":0.0,"ButtonLight AutomaticDoorClosing":0.0,"ButtonLight AutomaticKneeling":0.0,"ButtonLight WheelchairRamp State1":0.0,"ButtonLight WheelchairRamp State2":0.0,"ButtonLight DoorClearance":0.0,"ButtonLight DoorLock 1 State1":0.0,"ButtonLight DoorLock 1 State2":0.0,"SecondDoorRequest":0.0,"ThirdDoorRequest":0.0,"FourthDoorRequest":0.0,"LED WarningLight":0.0,"DB Dot":0.0,"LED FixingBrake":0.0,"LED StopRequest":0.0,"Gear_N":0.0},"BusLogic":{
	"Sales": {}
},"PowerMeter":"0.0"}
